[
  {
    "id": "ChIJk7Q_TbcEwhURhUcJjk_50VU",
    "name": "Masjidil Haram, Mekah",
    "lat": 21.423027631442064,
    "lng": 39.82575336588609,
    "image": "masjidil-haram.jpeg"
  },
  {
    "id": "ChIJEWSjC7oEwhURRlK9Iny8D5Q",
    "name": "Bukit Safa & Marwa, Mekah",
    "lat": 21.423745487029617,
    "lng": 39.8273529458252,
    "image": "bukit-safa-marwa-mekah.jpeg"
  },
  {
    "id": "ChIJzcgWT7cEwhURSLFoY3pTDbc",
    "name": "Sumur Zam-Zam, Mekah",
    "lat": 21.422748437053233,
    "lng": 39.826570018442,
    "image": "sumur-zamzam-mekah.jpeg"
  },
  {
    "id": "ChIJx5l-HLsEwhURpCRM0jK4GcM",
    "name": "Rumah Kelahiran Nabi, Mekah",
    "lat": 21.42510375333538,
    "lng": 39.82984202796744,
    "image": "rumah-kelahiran-nabi-mekah.jpeg"
  },
  {
    "id": "ChIJIxla5hr96RURsXDK1qQK-gA",
    "name": "Jabal Arafah, Mekah",
    "lat": 21.355523766884804,
    "lng": 39.98428770484343,
    "image": "jabal-arafah-mekah.jpeg"
  },
  {
    "id": "ChIJp25-FHQEwhURPRGYdtAjtvQ",
    "name": "Jumratul 'Ula, Mekah",
    "lat": 21.42043367671108,
    "lng": 39.874081593108606,
    "image": "jumratul-ula.jpeg"
  },
  {
    "id": "ChIJFcdBnnYEwhURXD4nWEQ1Dnk",
    "name": "Jumratul Wustha, Mekah",
    "lat": 21.421241800734062,
    "lng": 39.87285606723178,
    "image": "jumratul-wustha.jpeg"
  },
  {
    "id": "ChIJYyOCAncEwhUR4ePAFRaZ3ZU",
    "name": "Jumratul Kubra, Mekah",
    "lat": 21.422323248046894,
    "lng": 39.87113264776871,
    "image": "jumratul-kubra.jpeg"
  },
  {
    "id": "ChIJyRQYOqYEwhURPpQQGb4bflw",
    "name": "Jannatul Ma'la, Mekah",
    "lat": 21.434931481887716,
    "lng": 39.82866083482947,
    "image": "jannatul-mala-mekah.jpeg"
  },
  {
    "id": "ChIJ1YFfUKYEwhURkc_OpjkJxQg",
    "name": "Masjid Al-Jinn, Mekah",
    "lat": 21.43357326481119,
    "lng": 39.82898265760381,
    "image": "masjid-al-jinn-mekah.jpeg"
  },
  {
    "id": "ChIJPwNL_DsDwhURqdUINYAb04U",
    "name": "Gua Hira/Jabal Nur, Mekah",
    "lat": 21.458172390605544,
    "lng": 39.859674475248376,
    "image": "gua-hira-mekah.jpeg"
  },
  {
    "id": "ChIJeSWsS2UFwhURW0ajzD-SYQk",
    "name": "Gua Tsur, Mekah",
    "lat": 21.38612705222412,
    "lng": 39.84730147674659,
    "image": "gua-tsur-mekah.jpeg"
  },
  {
    "id": "ChIJtyk0kdr9wRURVfjW9-qT8pQ",
    "name": "Masjid Ji'rana, Mekah",
    "lat": 21.56845565753187,
    "lng": 39.951219302890635,
    "image": "masjid-jiranah-mekah.jpg"
  },
  {
    "id": "ChIJEas6Wd0dwhURhHWjm8YqEN4",
    "name": "Masjid Aisyah/Tan'im, Mekah",
    "lat": 21.46823471258188,
    "lng": 39.80109847371167,
    "image": "masjid-aisyah-tanim-mekah.jpeg"
  },
  {
    "id": "ChIJsx7o2XIEwhURzyvKs9ZFxzc",
    "name": "Masjid Al-Khaif, Mekah",
    "lat": 21.415406437910292,
    "lng": 39.878248096873186,
    "image": "masjid-al-khaif-mekah.jpeg"
  },

  {
    "id": "ChIJFUyNcqq_vRURL4656KnMyTk",
    "name": "Masjid Nabawi, Madinah",
    "lat": 24.467486830387667,
    "lng": 39.61118200233512,
    "image": "masjid-nabawi.png"
  },
  {
    "id": "ChIJEyZRQQe_vRURhYWyBx8_8bI",
    "name": "Jannatul Baqi, Madinah",
    "lat": 24.46727854410046,
    "lng": 39.61636400706309,
    "image": "jannatul-baqi-madinah.jpeg"
  },
  {
    "id": "ChIJVamqs4S_vRURTvpFL0MLx2g",
    "name": "Masjid Quba, Madinah",
    "lat": 24.439658045162282,
    "lng": 39.61717564690746,
    "image": "masjid-quba-madinah.webp"
  },
  {
    "id": "ChIJuVCjmde-vRURPporyViUQdo",
    "name": "Masjid Qiblatain, Madinah",
    "lat": 24.48437318979376,
    "lng": 39.57877130677477,
    "image": "masjid-qiblatain-madinah.webp"
  },
  {
    "id": "ChIJ29MZ28W9vRURH6ktKJdrTkw",
    "name": "Gunung Uhud, Madinah",
    "lat": 24.52340028567926,
    "lng": 39.626441349100745,
    "image": "jabal-uhud-madinah.webp"
  },
  {
    "id": "ChIJI3KW_lK-vRURDPkFuBwEyxI",
    "name": "Masjid Ijaba, Madinah",
    "lat": 24.475186866503883,
    "lng": 39.619256422751285,
    "image": "masjid-ijaba-madinah.webp"
  },
  {
    "id": "ChIJw2S-GuK-vRURzH6nxsSGsr4",
    "name": "Masjid Khandaq, Madinah",
    "lat": 24.47676126394176,
    "lng": 39.595691082706054,
    "image": "masjid-khandaq-madinah.jpeg"
  },
  {
    "id": "ChIJfc4sBJy_vRUR4RzWixupog4",
    "name": "Masjid Al Jummah, Madinah",
    "lat": 24.44568543062068,
    "lng": 39.61528840349183,
    "image": "masjid-jummah-madinah.jpeg"
  },
  {
    "id": "ChIJJSqqWAa_vRURViqW1ezAeok",
    "name": "Masjid Ghamama, Madinah",
    "lat": 24.465922400056694,
    "lng": 39.60704671904028,
    "image": "masjid-ghamama-madinah.jpeg"
  },
  {
    "id": "ChIJ_555iQa_vRURaGLFhceXuJI",
    "name": "Masjid Abu Bakar, Madinah",
    "lat": 24.466359030550933,
    "lng": 39.60637139055638,
    "image": "masjid-abu-bakar-madinah.webp"
  },
  {
    "id": "ChIJ-QPK_R2_vRURAvlQAHQpI40",
    "name": "Masjid Umar Bin Khattab, Madinah",
    "lat": 24.476612979858352,
    "lng": 39.59516753835332,
    "image": "masjid-umar-ibn-al-khattab-madinah.jpeg"
  },
  {
    "id": "ChIJjU8B5x2_vRURgCBkwfWUH3k",
    "name": "Masjid Ali, Madinah",
    "lat": 24.47590991629691,
    "lng": 39.59551083641174,
    "image": "masjid-ali-bin-abi-thalib-madinah.webp"
  },
  {
    "id": "ChIJKXa1dburpRURbp58Y-P1Cfw",
    "name": "Kota Al Ula, Madinah",
    "lat": 26.60544567893239,
    "lng": 37.93052022754242,
    "image": "kota-al-ula-madinah.webp"
  },
  {
    "id": "ChIJi0ZKbs--vRUR1pOhp8oxJbw",
    "name": "Sumur Raumah/Utsman, Madinah",
    "lat": 24.49475398461579,
    "lng": 39.578576332804346,
    "image": "sumur-raumah-madinah.jpeg"
  },
  {
    "id": "ChIJgX6_Ds6VvRURExnN5yAcx4w",
    "name": "Museum Al Madinah, Madinah",
    "lat": 24.47737577811878,
    "lng": 39.68783414630945,
    "image": "museum-al-madinah.jpeg"
  },
  {
    "id": "ChIJxesVIG25vRURM36XOymwmXU",
    "name": "Percetakan Al Quran, Madinah",
    "lat": 24.51556602783594,
    "lng": 39.541036907232325,
    "image": "percetakan-al-quran-madinah.jpeg"
  }
]
